{"0": {"id": 69, "name": "Kristin Brock", "address": "98863 Ronald Hollow Apt. 479\nPort Matthew, AL 70072", "latitude": "-0.443167", "longitude": "4.813517"}, "1": {"id": 100, "name": "Cynthia Jackson", "address": "748 Cline Ports Suite 914\nBarnettmouth, AS 72703", "latitude": "15.4235975", "longitude": "27.512790"}, "2": {"id": 94, "name": "Ryan Thornton", "address": "697 Jonathan Circles Suite 957\nSouth Laurenmouth, CA 79471", "latitude": "-30.654404", "longitude": "-66.009645"}, "3": {"id": 28, "name": "Howard Holloway", "address": "481 Peterson Forge\nLake Kathleenshire, NJ 99737", "latitude": "50.2889645", "longitude": "-104.528726"}, "4": {"id": 17, "name": "Tracy Nguyen", "address": "340 Denise Dale\nAllenchester, NC 87861", "latitude": "-1.7488015", "longitude": "-139.091440"}, "5": {"id": 81, "name": "Preston Gibbs", "address": "2957 Shannon Lodge Suite 465\nMcdanielton, IN 50272", "latitude": "53.3994585", "longitude": "-52.485210"}, "6": {"id": 1, "name": "Thomas Bates", "address": "750 Brandy Path Apt. 283\nJoshuaville, LA 53770", "latitude": "51.251417", "longitude": "-166.374136"}, "7": {"id": 82, "name": "Jon Serrano", "address": "704 Jimenez Place Suite 090\nNorth Melvinbury, VI 68806", "latitude": "56.687372", "longitude": "-8.893351"}, "8": {"id": 17, "name": "Natasha Smith", "address": "Unit 9423 Box 6837\nDPO AA 71883", "latitude": "-48.430010", "longitude": "-72.905918"}, "9": {"id": 98, "name": "John Fletcher", "address": "342 King Circles Apt. 793\nEast Matthew, DC 84990", "latitude": "14.728221", "longitude": "95.733083"}}